[{"id": "5a0fe55ab6b04b6e8f6561d7", "name": "Blockhouse Bar", "contact": {}, "location": {"lat": 39.165297, "lng": -86.5348814, "labeledLatLngs": [{"label": "display", "lat": 39.165297, "lng": -86.5348814}], "distance": 559, "cc": "US", "city": "Bloomington", "state": "IN", "country": "United States", "formattedAddress": ["Bloomington, IN", "United States"]}, "categories": [{"id": "4bf58dd8d48988d1e5931735", "name": "Music Venue", "pluralName": "Music Venues", "shortName": "Music Venue", "icon": {"prefix": "https://ss3.4sqi.net/img/categories_v2/arts_entertainment/musicvenue_", "suffix": ".png"}, "primary": true}], "verified": false, "stats": {"tipCount": 0, "usersCount": 0, "checkinsCount": 0, "visitsCount": 0}, "beenHere": {"count": 0, "lastCheckinExpiredAt": 0, "marked": false, "unconfirmedCount": 0}, "hereNow": {"count": 0, "summary": "Nobody here", "groups": []}, "referralId": "v-1600993732", "venueChains": [], "hasPerk": false}, {"id": "515f544ce4b024b5c113ba12", "name": "B-Town Barbell", "contact": {}, "location": {"address": "418 S College Ave", "lat": 39.1622314453125, "lng": -86.53546142578125, "labeledLatLngs": [{"label": "display", "lat": 39.1622314453125, "lng": -86.53546142578125}], "distance": 262, "postalCode": "47403", "cc": "US", "city": "Bloomington", "state": "IN", "country": "United States", "formattedAddress": ["418 S College Ave", "Bloomington, IN 47403", "United States"]}, "categories": [{"id": "4bf58dd8d48988d176941735", "name": "Gym", "pluralName": "Gyms", "shortName": "Gym", "icon": {"prefix": "https://ss3.4sqi.net/img/categories_v2/building/gym_", "suffix": ".png"}, "primary": true}], "verified": false, "stats": {"tipCount": 0, "usersCount": 0, "checkinsCount": 0, "visitsCount": 0}, "beenHere": {"count": 0, "lastCheckinExpiredAt": 0, "marked": false, "unconfirmedCount": 0}, "hereNow": {"count": 0, "summary": "Nobody here", "groups": []}, "referralId": "v-1600993732", "venueChains": [], "hasPerk": false}, {"id": "4c8171a7dc018cfadde2c56c", "name": "Serendipity", "contact": {}, "location": {"address": "201 S College Ave", "lat": 39.16538683322792, "lng": -86.53466905898989, "labeledLatLngs": [{"label": "display", "lat": 39.16538683322792, "lng": -86.53466905898989}], "distance": 565, "postalCode": "47404", "cc": "US", "city": "Bloomington", "state": "IN", "country": "United States", "formattedAddress": ["201 S College Ave", "Bloomington, IN 47404", "United States"]}, "categories": [{"id": "4bf58dd8d48988d11e941735", "name": "Cocktail Bar", "pluralName": "Cocktail Bars", "shortName": "Cocktail", "icon": {"prefix": "https://ss3.4sqi.net/img/categories_v2/nightlife/cocktails_", "suffix": ".png"}, "primary": true}], "verified": false, "stats": {"tipCount": 0, "usersCount": 0, "checkinsCount": 0, "visitsCount": 0}, "delivery": {"id": "2173999", "url": "https://www.grubhub.com/restaurant/serendipity-martini-bar-201-south-college-avenue-bloomington/2173999?affiliate=1131&utm_source=foursquare-affiliate-network&utm_medium=affiliate&utm_campaign=1131&utm_content=2173999", "provider": {"name": "grubhub", "icon": {"prefix": "https://fastly.4sqi.net/img/general/cap/", "sizes": [40, 50], "name": "/delivery_provider_grubhub_20180129.png"}}}, "beenHere": {"count": 0, "lastCheckinExpiredAt": 0, "marked": false, "unconfirmedCount": 0}, "hereNow": {"count": 0, "summary": "Nobody here", "groups": []}, "referralId": "v-1600993732", "venueChains": [], "hasPerk": false}, {"id": "54465149498eb68f7c98937c", "name": "Bill's Barber Shop", "contact": {}, "location": {"lat": 39.157078000000006, "lng": -86.535104, "labeledLatLngs": [{"label": "display", "lat": 39.157078000000006, "lng": -86.535104}, {"label": "entrance", "lat": 39.157051, "lng": -86.534816}], "distance": 388, "cc": "US", "city": "Bloomington", "state": "IN", "country": "United States", "formattedAddress": ["Bloomington, IN", "United States"]}, "categories": [{"id": "4bf58dd8d48988d110951735", "name": "Salon / Barbershop", "pluralName": "Salons / Barbershops", "shortName": "Salon / Barbershop", "icon": {"prefix": "https://ss3.4sqi.net/img/categories_v2/shops/salon_barber_", "suffix": ".png"}, "primary": true}], "verified": false, "stats": {"tipCount": 0, "usersCount": 0, "checkinsCount": 0, "visitsCount": 0}, "beenHere": {"count": 0, "lastCheckinExpiredAt": 0, "marked": false, "unconfirmedCount": 0}, "hereNow": {"count": 0, "summary": "Nobody here", "groups": []}, "referralId": "v-1600993732", "venueChains": [], "hasPerk": false}, {"id": "5a5156e0d1a4026792d1e982", "name": "K&C\u2019s Barleywine Bungalow on the B-Line", "contact": {}, "location": {"address": "335 S College Ave", "lat": 39.163398, "lng": -86.534609, "labeledLatLngs": [{"label": "display", "lat": 39.163398, "lng": -86.534609}], "distance": 348, "postalCode": "47403", "cc": "US", "city": "Bloomington", "state": "IN", "country": "United States", "formattedAddress": ["335 S College Ave", "Bloomington, IN 47403", "United States"]}, "categories": [{"id": "53e510b7498ebcb1801b55d4", "name": "Night Market", "pluralName": "Night Markets", "shortName": "Night Market", "icon": {"prefix": "https://ss3.4sqi.net/img/categories_v2/shops/fleamarket_", "suffix": ".png"}, "primary": true}], "verified": false, "stats": {"tipCount": 0, "usersCount": 0, "checkinsCount": 0, "visitsCount": 0}, "beenHere": {"count": 0, "lastCheckinExpiredAt": 0, "marked": false, "unconfirmedCount": 0}, "hereNow": {"count": 0, "summary": "Nobody here", "groups": []}, "referralId": "v-1600993732", "venueChains": [], "hasPerk": false}, {"id": "4d2f257294013704559becda", "name": "Center For Advanced Lapraroscopic And Bariatric Surgery", "contact": {}, "location": {"lat": 39.16145691211021, "lng": -86.53915263050779, "labeledLatLngs": [{"label": "display", "lat": 39.16145691211021, "lng": -86.53915263050779}], "distance": 494, "cc": "US", "state": "Indiana", "country": "United States", "formattedAddress": ["Indiana", "United States"]}, "categories": [], "verified": false, "stats": {"tipCount": 0, "usersCount": 0, "checkinsCount": 0, "visitsCount": 0}, "beenHere": {"count": 0, "lastCheckinExpiredAt": 0, "marked": false, "unconfirmedCount": 0}, "hereNow": {"count": 0, "summary": "Nobody here", "groups": []}, "referralId": "v-1600993732", "venueChains": [], "hasPerk": false}]